[{ "formatted_address": "Yangon, Myanmar (Burma)", "latitude": 16.840939, "longitude": 96.173526, "accuracy": "APPROXIMATE", "google_place_id": "ChIJaxk-Ip6UwTARtAsI-HHS-1Y", "type": "locality,political", "postcode": "", "input_string": "Yangon", "number_of_results": 1, "status": "OK" }, { "formatted_address": "Naypyitaw, Myanmar (Burma)", "latitude": 19.7633057, "longitude": 96.0785104, "accuracy": "APPROXIMATE", "google_place_id": "ChIJwRfx4-S-yDAR2k7CyVCrkNA", "type": "locality,political", "postcode": "", "input_string": "Naypyitaw", "number_of_results": 1, "status": "OK" }, { "formatted_address": "Mandalay, Myanmar (Burma)", "latitude": 21.9588282, "longitude": 96.0891032, "accuracy": "APPROXIMATE", "google_place_id": "ChIJEXTS8CNtyzARRlZOHuBrFCQ", "type": "locality,political", "postcode": "", "input_string": "Mandalay", "number_of_results": 1, "status": "OK" }, { "formatted_address": "Old Bagan, Myanmar (Burma)", "latitude": 21.1717271, "longitude": 94.8585458, "accuracy": "APPROXIMATE", "google_place_id": "ChIJYcrYkwPltTARgZnowxdHGjc", "type": "locality,political", "postcode": "", "input_string": "Bagan", "number_of_results": 1, "status": "OK" }, { "formatted_address": "Ngwesaung, Myanmar (Burma)", "latitude": 16.8685083, "longitude": 94.3847814, "accuracy": "APPROXIMATE", "google_place_id": "ChIJA9mBalE1vjARIlByyAm6xHE", "type": "locality,political", "postcode": "", "input_string": "Ngwesaung", "number_of_results": 1, "status": "OK" }, { "formatted_address": "Ngapali Beach, Myanmar (Burma)", "latitude": 18.3802687, "longitude": 94.3356425, "accuracy": "APPROXIMATE", "google_place_id": "ChIJO5i4IUwZuTARHYI-4nzE_fQ", "type": "establishment,natural_feature", "postcode": "", "input_string": "Ngapali", "number_of_results": 1, "status": "OK" }, { "formatted_address": "Pyay, Myanmar (Burma)", "latitude": 18.8406029, "longitude": 95.2579968, "accuracy": "APPROXIMATE", "google_place_id": "ChIJdYENe1GDxzARjmS4gGRc8Ls", "type": "locality,political", "postcode": "", "input_string": "Pyay", "number_of_results": 1, "status": "OK" }, { "formatted_address": "Bago, Myanmar (Burma)", "latitude": 17.3220711, "longitude": 96.4663286, "accuracy": "APPROXIMATE", "google_place_id": "ChIJQ-kIR7nWwzARMm8-jfl6q2U", "type": "locality,political", "postcode": "", "input_string": "Bago", "number_of_results": 1, "status": "OK" }, { "formatted_address": "Bokpyin, Myanmar (Burma)", "latitude": 11.2562027, "longitude": 98.7618849, "accuracy": "APPROXIMATE", "google_place_id": "ChIJoyj642Ie-TARNgEXGGGIYoI", "type": "locality,political", "postcode": "", "input_string": "Bokpyin", "number_of_results": 1, "status": "OK" }, { "formatted_address": "Bangkok, Thailand", "latitude": 13.7563309, "longitude": 100.5017651, "accuracy": "APPROXIMATE", "google_place_id": "ChIJ82ENKDJgHTERIEjiXbIAAQE", "type": "locality,political", "postcode": "", "input_string": "Bangkok", "number_of_results": 1, "status": "OK" }, { "formatted_address": "Ko Samui, Ko Samui District, Surat Thani, Thailand", "latitude": 9.5120168, "longitude": 100.0135929, "accuracy": "APPROXIMATE", "google_place_id": "ChIJbyZmHFDxVDARMIN9Pb1a1e0", "type": "establishment,natural_feature", "postcode": "", "input_string": "Koh Samui", "number_of_results": 1, "status": "OK" }, { "formatted_address": "Singapore", "latitude": 1.352083, "longitude": 103.819836, "accuracy": "APPROXIMATE", "google_place_id": "ChIJdZOLiiMR2jERxPWrUs9peIg", "type": "country,political", "postcode": "", "input_string": "Singapore", "number_of_results": 1, "status": "OK" }, { "formatted_address": "Seoul, South Korea", "latitude": 37.566535, "longitude": 126.9779692, "accuracy": "APPROXIMATE", "google_place_id": "ChIJzWXFYYuifDUR64Pq5LTtioU", "type": "locality,political", "postcode": "", "input_string": "Seoul", "number_of_results": 1, "status": "OK" }, { "formatted_address": "Arcadia, CA, USA", "latitude": 34.1397292, "longitude": -118.0353449, "accuracy": "APPROXIMATE", "google_place_id": "ChIJK8q408XbwoARiymu0ttQqEw", "type": "locality,political", "postcode": "", "input_string": "Arcadia California", "number_of_results": 1, "status": "OK" }, { "formatted_address": "Sydney NSW, Australia", "latitude": -33.8688197, "longitude": 151.2092955, "accuracy": "APPROXIMATE", "google_place_id": "ChIJP3Sa8ziYEmsRUKgyFmh9AQM", "type": "colloquial_area,locality,political", "postcode": "", "input_string": "Sydney", "number_of_results": 1, "status": "OK" }, { "formatted_address": "Beijing, China", "latitude": 39.9041999, "longitude": 116.4073963, "accuracy": "APPROXIMATE", "google_place_id": "ChIJuSwU55ZS8DURiqkPryBWYrk", "type": "locality,political", "postcode": "", "input_string": "Beijing", "number_of_results": 1, "status": "OK" }, { "formatted_address": "Shanghai, China", "latitude": 31.230416, "longitude": 121.473701, "accuracy": "APPROXIMATE", "google_place_id": "ChIJMzz1sUBwsjURoWTDI5QSlQI", "type": "locality,political", "postcode": "", "input_string": "Shanghai", "number_of_results": 1, "status": "OK" }, { "formatted_address": "Xi'an, Shaanxi, China", "latitude": 34.341574, "longitude": 108.93977, "accuracy": "APPROXIMATE", "google_place_id": "ChIJuResIul5YzYRLliUp_1m1IU", "type": "locality,political", "postcode": "", "input_string": "Xi an", "number_of_results": 1, "status": "OK" }, { "formatted_address": "Taipei, Taiwan", "latitude": 25.0329694, "longitude": 121.5654177, "accuracy": "APPROXIMATE", "google_place_id": "ChIJmQrivHKsQjQR4MIK3c41aj8", "type": "colloquial_area,locality,political", "postcode": "", "input_string": "Taipei", "number_of_results": 1, "status": "OK" }, { "formatted_address": "Tainan, East District, Tainan City, Taiwan", "latitude": 22.9997281, "longitude": 120.2270277, "accuracy": "APPROXIMATE", "google_place_id": "ChIJK_I1UZN2bjQRnLZaGDT61Rw", "type": "colloquial_area,locality,political", "postcode": "", "input_string": "Tainan", "number_of_results": 1, "status": "OK" }, { "formatted_address": "Toronto, ON, Canada", "latitude": 43.653226, "longitude": -79.3831843, "accuracy": "APPROXIMATE", "google_place_id": "ChIJpTvG15DL1IkRd8S0KlBVNTI", "type": "locality,political", "postcode": "", "input_string": "Toronto", "number_of_results": 1, "status": "OK" }, { "formatted_address": "Vancouver, BC, Canada", "latitude": 49.2827291, "longitude": -123.1207375, "accuracy": "APPROXIMATE", "google_place_id": "ChIJs0-pQ_FzhlQRi_OBm-qWkbs", "type": "locality,political", "postcode": "", "input_string": "Vancouver", "number_of_results": 1, "status": "OK" }, { "formatted_address": "San Francisco, CA, USA", "latitude": 37.7749295, "longitude": -122.4194155, "accuracy": "APPROXIMATE", "google_place_id": "ChIJIQBpAG2ahYAR_6128GcTUEo", "type": "locality,political", "postcode": "", "input_string": "San Francisco", "number_of_results": 1, "status": "OK" }, { "formatted_address": "Seattle, WA, USA", "latitude": 47.6062095, "longitude": -122.3320708, "accuracy": "APPROXIMATE", "google_place_id": "ChIJVTPokywQkFQRmtVEaUZlJRA", "type": "locality,political", "postcode": "", "input_string": "Seattle", "number_of_results": 1, "status": "OK" }, { "formatted_address": "New York, NY, USA", "latitude": 40.7127753, "longitude": -74.0059728, "accuracy": "APPROXIMATE", "google_place_id": "ChIJOwg_06VPwokRYv534QaPC8g", "type": "locality,political", "postcode": "", "input_string": "New York", "number_of_results": 1, "status": "OK" }, { "formatted_address": "Dubai - United Arab Emirates", "latitude": 25.2048493, "longitude": 55.2707828, "accuracy": "APPROXIMATE", "google_place_id": "ChIJRcbZaklDXz4RYlEphFBu5r0", "type": "locality,political", "postcode": "", "input_string": "Dubai", "number_of_results": 1, "status": "OK" }, { "formatted_address": "San Jose, CA, USA", "latitude": 37.3382082, "longitude": -121.8863286, "accuracy": "APPROXIMATE", "google_place_id": "ChIJ9T_5iuTKj4ARe3GfygqMnbk", "type": "locality,political", "postcode": "", "input_string": "San Jose", "number_of_results": 1, "status": "OK" }, { "formatted_address": "San Diego, CA, USA", "latitude": 32.715738, "longitude": -117.1610838, "accuracy": "APPROXIMATE", "google_place_id": "ChIJSx6SrQ9T2YARed8V_f0hOg0", "type": "locality,political", "postcode": "", "input_string": "San Diego California", "number_of_results": 1, "status": "OK" }, { "formatted_address": "Los Angeles, CA, USA", "latitude": 34.0522342, "longitude": -118.2436849, "accuracy": "APPROXIMATE", "google_place_id": "ChIJE9on3F3HwoAR9AhGJW_fL-I", "type": "locality,political", "postcode": "", "input_string": "Los Angeles", "number_of_results": 1, "status": "OK" }, { "formatted_address": "Santa Monica, CA, USA", "latitude": 34.0194543, "longitude": -118.4911912, "accuracy": "APPROXIMATE", "google_place_id": "ChIJGQCRws6kwoARq_Uj_7UKF7Q", "type": "locality,political", "postcode": "", "input_string": "Santa Monica", "number_of_results": 1, "status": "OK" }, { "formatted_address": "Westwood, CA 96137, USA", "latitude": 40.3059999, "longitude": -121.0057931, "accuracy": "APPROXIMATE", "google_place_id": "ChIJYXG4gERwnYAR2YUUxks-QW4", "type": "locality,political", "postcode": "96137", "input_string": "Westwood California", "number_of_results": 1, "status": "OK" }, { "formatted_address": "Riverside, CA, USA", "latitude": 33.9806005, "longitude": -117.3754942, "accuracy": "APPROXIMATE", "google_place_id": "ChIJu330f9-m3IAR6ApeEwXXofc", "type": "locality,political", "postcode": "", "input_string": "Riverside California", "number_of_results": 1, "status": "OK" }, { "formatted_address": "Las Vegas, NV, USA", "latitude": 36.1699412, "longitude": -115.1398296, "accuracy": "APPROXIMATE", "google_place_id": "ChIJ0X31pIK3voARo3mz1ebVzDo", "type": "locality,political", "postcode": "", "input_string": "Las Vegas", "number_of_results": 1, "status": "OK" }, { "formatted_address": "Whistler, BC V0N, Canada", "latitude": 50.1163196, "longitude": -122.9573563, "accuracy": "APPROXIMATE", "google_place_id": "ChIJh3uVA7I8h1QR9s_1dehBt0o", "type": "locality,political", "postcode": "V0N", "input_string": "Whistler", "number_of_results": 1, "status": "OK" }, { "formatted_address": "Boston, MA, USA", "latitude": 42.3600825, "longitude": -71.0588801, "accuracy": "APPROXIMATE", "google_place_id": "ChIJGzE9DS1l44kRoOhiASS_fHg", "type": "locality,political", "postcode": "", "input_string": "Boston", "number_of_results": 1, "status": "OK" }, { "formatted_address": "Philadelphia, PA, USA", "latitude": 39.9525839, "longitude": -75.1652215, "accuracy": "APPROXIMATE", "google_place_id": "ChIJ60u11Ni3xokRwVg-jNgU9Yk", "type": "locality,political", "postcode": "", "input_string": "Philadelphia", "number_of_results": 1, "status": "OK" }, { "formatted_address": "Pittsburgh, PA, USA", "latitude": 40.4406248, "longitude": -79.9958864, "accuracy": "APPROXIMATE", "google_place_id": "ChIJA4UGSG_xNIgRNBuiWqEV-Y0", "type": "locality,political", "postcode": "", "input_string": "Pittsburgh", "number_of_results": 1, "status": "OK" }, { "formatted_address": "Tokyo, Japan", "latitude": 35.6803997, "longitude": 139.7690174, "accuracy": "APPROXIMATE", "google_place_id": "ChIJXSModoWLGGARILWiCfeu2M0", "type": "colloquial_area,locality,political", "postcode": "", "input_string": "Tokyo", "number_of_results": 1, "status": "OK" }, { "formatted_address": "Osaka, Japan", "latitude": 34.6937249, "longitude": 135.5022535, "accuracy": "APPROXIMATE", "google_place_id": "ChIJ4eIGNFXmAGAR5y9q5G7BW8U", "type": "locality,political", "postcode": "", "input_string": "Osaka", "number_of_results": 1, "status": "OK" }, { "formatted_address": "Kyoto, Japan", "latitude": 35.011564, "longitude": 135.7681489, "accuracy": "APPROXIMATE", "google_place_id": "ChIJ8cM8zdaoAWARPR27azYdlsA", "type": "locality,political", "postcode": "", "input_string": "Kyoto", "number_of_results": 1, "status": "OK" }, { "formatted_address": "Kobe, Hyogo, Japan", "latitude": 34.6900806, "longitude": 135.1956311, "accuracy": "APPROXIMATE", "google_place_id": "ChIJ2YntKoF9AGAR9HD2wgZhEsc", "type": "locality,political", "postcode": "", "input_string": "Kobe Japan", "number_of_results": 1, "status": "OK" }, { "formatted_address": "Nara, Japan", "latitude": 34.685109, "longitude": 135.8048019, "accuracy": "APPROXIMATE", "google_place_id": "ChIJwQyneMU3AWARIiZJubDZ_ko", "type": "locality,political", "postcode": "", "input_string": "Nara", "number_of_results": 1, "status": "OK" }, { "formatted_address": "Portland, OR, USA", "latitude": 45.5051064, "longitude": -122.6750261, "accuracy": "APPROXIMATE", "google_place_id": "ChIJJ3SpfQsLlVQRkYXR9ua5Nhw", "type": "locality,political", "postcode": "", "input_string": "Portland", "number_of_results": 1, "status": "OK" }, { "formatted_address": "Denver, CO, USA", "latitude": 39.7392358, "longitude": -104.990251, "accuracy": "APPROXIMATE", "google_place_id": "ChIJzxcfI6qAa4cR1jaKJ_j0jhE", "type": "locality,political", "postcode": "", "input_string": "Denver", "number_of_results": 1, "status": "OK" }, { "formatted_address": "Claremont, CA, USA", "latitude": 34.0966764, "longitude": -117.7197785, "accuracy": "APPROXIMATE", "google_place_id": "ChIJX_ane5Q6w4ARTTe8KondetU", "type": "locality,political", "postcode": "", "input_string": "Claremont", "number_of_results": 1, "status": "OK" }]
