[{ "accuracy": "APPROXIMATE", "formatted_address": "Yangon, Myanmar (Burma)", "google_place_id": "ChIJaxk-Ip6UwTARtAsI-HHS-1Y", "input_string": "Yangon", "latitude": 16.8660694, "longitude": 96.195132, "number_of_results": 1, "postcode": "", "status": "OK", "type": "locality,political" }, { "accuracy": "APPROXIMATE", "formatted_address": "Naypyitaw, Myanmar (Burma)", "google_place_id": "ChIJwRfx4-S-yDAR2k7CyVCrkNA", "input_string": "Naypyitaw", "latitude": 19.7633057, "longitude": 96.0785104, "number_of_results": 1, "postcode": "", "status": "OK", "type": "locality,political" }, { "accuracy": "APPROXIMATE", "formatted_address": "Mandalay, Myanmar (Burma)", "google_place_id": "ChIJEXTS8CNtyzARRlZOHuBrFCQ", "input_string": "Mandalay", "latitude": 21.9588282, "longitude": 96.0891032, "number_of_results": 1, "postcode": "", "status": "OK", "type": "locality,political" }, { "accuracy": "APPROXIMATE", "formatted_address": "Old Bagan, Myanmar (Burma)", "google_place_id": "ChIJYcrYkwPltTARgZnowxdHGjc", "input_string": "Bagan", "latitude": 21.1717271, "longitude": 94.8585458, "number_of_results": 1, "postcode": "", "status": "OK", "type": "locality,political" }, { "accuracy": "APPROXIMATE", "formatted_address": "Ngwesaung, Myanmar (Burma)", "google_place_id": "ChIJA9mBalE1vjARIlByyAm6xHE", "input_string": "Ngwesaung", "latitude": 16.8685083, "longitude": 94.3847814, "number_of_results": 1, "postcode": "", "status": "OK", "type": "locality,political" }, { "accuracy": "APPROXIMATE", "formatted_address": "Ngapali Beach, Myanmar (Burma)", "google_place_id": "ChIJO5i4IUwZuTARHYI-4nzE_fQ", "input_string": "Ngapali", "latitude": 18.3802687, "longitude": 94.3356425, "number_of_results": 1, "postcode": "", "status": "OK", "type": "establishment,natural_feature" }, { "accuracy": "APPROXIMATE", "formatted_address": "Pyay, Myanmar (Burma)", "google_place_id": "ChIJdYENe1GDxzARjmS4gGRc8Ls", "input_string": "Pyay", "latitude": 18.8406029, "longitude": 95.2579968, "number_of_results": 1, "postcode": "", "status": "OK", "type": "locality,political" }, { "accuracy": "APPROXIMATE", "formatted_address": "Bago, Myanmar (Burma)", "google_place_id": "ChIJQ-kIR7nWwzARMm8-jfl6q2U", "input_string": "Bago", "latitude": 17.3220711, "longitude": 96.4663286, "number_of_results": 1, "postcode": "", "status": "OK", "type": "locality,political" }, { "accuracy": "APPROXIMATE", "formatted_address": "Bangkok, Thailand", "google_place_id": "ChIJ82ENKDJgHTERIEjiXbIAAQE", "input_string": "Bangkok", "latitude": 13.7563309, "longitude": 100.5017651, "number_of_results": 1, "postcode": "", "status": "OK", "type": "locality,political" }, { "accuracy": "APPROXIMATE", "formatted_address": "Ko Samui, Ko Samui District, Surat Thani, Thailand", "google_place_id": "ChIJbyZmHFDxVDARMIN9Pb1a1e0", "input_string": "Koh Samui", "latitude": 9.5120168, "longitude": 100.0135929, "number_of_results": 1, "postcode": "", "status": "OK", "type": "establishment,natural_feature" }, { "accuracy": "APPROXIMATE", "formatted_address": "Singapore", "google_place_id": "ChIJdZOLiiMR2jERxPWrUs9peIg", "input_string": "Singapore", "latitude": 1.352083, "longitude": 103.819836, "number_of_results": 1, "postcode": "", "status": "OK", "type": "country,political" }, { "accuracy": "APPROXIMATE", "formatted_address": "Seoul, South Korea", "google_place_id": "ChIJzWXFYYuifDUR64Pq5LTtioU", "input_string": "Seoul", "latitude": 37.566535, "longitude": 126.9779692, "number_of_results": 1, "postcode": "", "status": "OK", "type": "locality,political" }, { "accuracy": "APPROXIMATE", "formatted_address": "Arcadia, CA, USA", "google_place_id": "ChIJK8q408XbwoARiymu0ttQqEw", "input_string": "Arcadia California", "latitude": 34.1397292, "longitude": -118.0353449, "number_of_results": 1, "postcode": "", "status": "OK", "type": "locality,political" }, { "accuracy": "APPROXIMATE", "formatted_address": "Sydney NSW, Australia", "google_place_id": "ChIJP3Sa8ziYEmsRUKgyFmh9AQM", "input_string": "Sydney", "latitude": -33.8688197, "longitude": 151.2092955, "number_of_results": 1, "postcode": "", "status": "OK", "type": "colloquial_area,locality,political" }, { "accuracy": "APPROXIMATE", "formatted_address": "Beijing, China", "google_place_id": "ChIJuSwU55ZS8DURiqkPryBWYrk", "input_string": "Beijing", "latitude": 39.9041999, "longitude": 116.4073963, "number_of_results": 1, "postcode": "", "status": "OK", "type": "locality,political" }, { "accuracy": "APPROXIMATE", "formatted_address": "Shanghai, China", "google_place_id": "ChIJMzz1sUBwsjURoWTDI5QSlQI", "input_string": "Shanghai", "latitude": 31.2303904, "longitude": 121.4737021, "number_of_results": 1, "postcode": "", "status": "OK", "type": "locality,political" }, { "accuracy": "APPROXIMATE", "formatted_address": "Xi'an, Shaanxi, China", "google_place_id": "ChIJuResIul5YzYRLliUp_1m1IU", "input_string": "Xi an", "latitude": 34.341574, "longitude": 108.93977, "number_of_results": 1, "postcode": "", "status": "OK", "type": "locality,political" }, { "accuracy": "APPROXIMATE", "formatted_address": "Taipei, Taiwan", "google_place_id": "ChIJmQrivHKsQjQR4MIK3c41aj8", "input_string": "Taipei", "latitude": 25.0329694, "longitude": 121.5654177, "number_of_results": 1, "postcode": "", "status": "OK", "type": "colloquial_area,locality,political" }, { "accuracy": "APPROXIMATE", "formatted_address": "Tainan, East District, Tainan City, Taiwan", "google_place_id": "ChIJK_I1UZN2bjQRnLZaGDT61Rw", "input_string": "Tainan", "latitude": 22.9997281, "longitude": 120.2270277, "number_of_results": 1, "postcode": "", "status": "OK", "type": "colloquial_area,locality,political" }, { "accuracy": "APPROXIMATE", "formatted_address": "Toronto, ON, Canada", "google_place_id": "ChIJpTvG15DL1IkRd8S0KlBVNTI", "input_string": "Toronto", "latitude": 43.653226, "longitude": -79.3831843, "number_of_results": 1, "postcode": "", "status": "OK", "type": "locality,political" }, { "accuracy": "APPROXIMATE", "formatted_address": "Vancouver, BC, Canada", "google_place_id": "ChIJs0-pQ_FzhlQRi_OBm-qWkbs", "input_string": "Vancouver", "latitude": 49.2827291, "longitude": -123.1207375, "number_of_results": 1, "postcode": "", "status": "OK", "type": "locality,political" }, { "accuracy": "APPROXIMATE", "formatted_address": "San Francisco, CA, USA", "google_place_id": "ChIJIQBpAG2ahYAR_6128GcTUEo", "input_string": "San Francisco", "latitude": 37.7749295, "longitude": -122.4194155, "number_of_results": 1, "postcode": "", "status": "OK", "type": "locality,political" }, { "accuracy": "APPROXIMATE", "formatted_address": "Seattle, WA, USA", "google_place_id": "ChIJVTPokywQkFQRmtVEaUZlJRA", "input_string": "Seattle", "latitude": 47.6062095, "longitude": -122.3320708, "number_of_results": 1, "postcode": "", "status": "OK", "type": "locality,political" }, { "accuracy": "APPROXIMATE", "formatted_address": "New York, NY, USA", "google_place_id": "ChIJOwg_06VPwokRYv534QaPC8g", "input_string": "New York", "latitude": 40.7127753, "longitude": -74.0059728, "number_of_results": 1, "postcode": "", "status": "OK", "type": "locality,political" }, { "accuracy": "APPROXIMATE", "formatted_address": "Dubai - United Arab Emirates", "google_place_id": "ChIJRcbZaklDXz4RYlEphFBu5r0", "input_string": "Dubai", "latitude": 25.2048493, "longitude": 55.2707828, "number_of_results": 1, "postcode": "", "status": "OK", "type": "locality,political" }, { "accuracy": "APPROXIMATE", "formatted_address": "San Jose, CA, USA", "google_place_id": "ChIJ9T_5iuTKj4ARe3GfygqMnbk", "input_string": "San Jose", "latitude": 37.3382082, "longitude": -121.8863286, "number_of_results": 1, "postcode": "", "status": "OK", "type": "locality,political" }, { "accuracy": "APPROXIMATE", "formatted_address": "San Diego, CA, USA", "google_place_id": "ChIJSx6SrQ9T2YARed8V_f0hOg0", "input_string": "San Diego California", "latitude": 32.715738, "longitude": -117.1610838, "number_of_results": 1, "postcode": "", "status": "OK", "type": "locality,political" }, { "accuracy": "APPROXIMATE", "formatted_address": "Los Angeles, CA, USA", "google_place_id": "ChIJE9on3F3HwoAR9AhGJW_fL-I", "input_string": "Los Angeles", "latitude": 34.0522342, "longitude": -118.2436849, "number_of_results": 1, "postcode": "", "status": "OK", "type": "locality,political" }, { "accuracy": "APPROXIMATE", "formatted_address": "Santa Monica, CA, USA", "google_place_id": "ChIJGQCRws6kwoARq_Uj_7UKF7Q", "input_string": "Santa Monica", "latitude": 34.0194543, "longitude": -118.4911912, "number_of_results": 1, "postcode": "", "status": "OK", "type": "locality,political" }, { "accuracy": "APPROXIMATE", "formatted_address": "Westwood, Los Angeles, CA, USA", "google_place_id": "ChIJecf92oa8woARVlNT9X_x42M", "input_string": "Westwood California", "latitude": 34.0635016, "longitude": -118.4455164, "number_of_results": 1, "postcode": "", "status": "OK", "type": "neighborhood,political" }, { "accuracy": "APPROXIMATE", "formatted_address": "Riverside, CA, USA", "google_place_id": "ChIJu330f9-m3IAR6ApeEwXXofc", "input_string": "Riverside", "latitude": 33.9806005, "longitude": -117.3754942, "number_of_results": 1, "postcode": "", "status": "OK", "type": "locality,political" }, { "accuracy": "APPROXIMATE", "formatted_address": "Las Vegas, NV, USA", "google_place_id": "ChIJ0X31pIK3voARo3mz1ebVzDo", "input_string": "Las Vegas", "latitude": 36.1699412, "longitude": -115.1398296, "number_of_results": 1, "postcode": "", "status": "OK", "type": "locality,political" }, { "accuracy": "APPROXIMATE", "formatted_address": "Whistler, BC V0N, Canada", "google_place_id": "ChIJh3uVA7I8h1QR9s_1dehBt0o", "input_string": "Whistler", "latitude": 50.1163196, "longitude": -122.9573563, "number_of_results": 1, "postcode": "V0N", "status": "OK", "type": "locality,political" }, { "accuracy": "APPROXIMATE", "formatted_address": "Boston, MA, USA", "google_place_id": "ChIJGzE9DS1l44kRoOhiASS_fHg", "input_string": "Boston", "latitude": 42.3600825, "longitude": -71.0588801, "number_of_results": 1, "postcode": "", "status": "OK", "type": "locality,political" }, { "accuracy": "APPROXIMATE", "formatted_address": "Philadelphia, PA, USA", "google_place_id": "ChIJ60u11Ni3xokRwVg-jNgU9Yk", "input_string": "Philadelphia", "latitude": 39.9525839, "longitude": -75.1652215, "number_of_results": 1, "postcode": "", "status": "OK", "type": "locality,political" }, { "accuracy": "APPROXIMATE", "formatted_address": "Pittsburgh, PA, USA", "google_place_id": "ChIJA4UGSG_xNIgRNBuiWqEV-Y0", "input_string": "Pittsburgh", "latitude": 40.4406248, "longitude": -79.9958864, "number_of_results": 1, "postcode": "", "status": "OK", "type": "locality,political" }]
